[
  {
    "id": 1,
    "date": "2020-03-02",
    "add_single_point": "Single",
    "add_route_point": null,
    "start_hour": "10:15",
    "end_hour": "11:15",
    "address": "Klausner, 14, Ramat Aviv",
    "name": null,
    "place_type": "Television station",
    "location": "Israel",
    "latitude": 32.1154996,
    "longitude": 34.80773124
  },
  {
    "id": 2,
    "date": "2020-02-28",
    "add_single_point": "Single",
    "add_route_point": null,
    "start_hour": "18:00",
    "end_hour": "18:00",
    "address": "Golden Crown Old City Hotel, Nazareth",
    "name": null,
    "place_type": "Hotel",
    "location": "Israel",
    "latitude": 32.705497,
    "longitude": 35.3035999
  },
  {
    "id": 3,
    "date": "2020-02-29",
    "add_single_point": "Single",
    "add_route_point": null,
    "start_hour": "08:00",
    "end_hour": "08:00",
    "address": "Golden Crown Old City Hotel, Nazareth",
    "name": null,
    "place_type": "Hotel",
    "location": "Israel",
    "latitude": 32.705497,
    "longitude": 35.3035999
  },
  {
    "id": 4,
    "date": "2020-03-04",
    "add_single_point": "Single",
    "add_route_point": null,
    "start_hour": "18:30",
    "end_hour": "20:00",
    "address": "Restal Hotel, Tiberias",
    "name": null,
    "place_type": "Hotel",
    "location": "Israel",
    "latitude": 32.786751,
    "longitude": 35.535289
  },
  {
    "id": 5,
    "date": "2020-02-29",
    "add_single_point": "Single",
    "add_route_point": null,
    "start_hour": "10:00",
    "end_hour": "12:00",
    "address": "Qumran National Park",
    "name": null,
    "place_type": "Park",
    "location": "Israel",
    "latitude": 31.74123,
    "longitude": 35.459169
  },
  {
    "id": 6,
    "date": "2020-03-01",
    "add_single_point": "Single",
    "add_route_point": null,
    "start_hour": "20:00",
    "end_hour": "23:00",
    "address": "Ramban Synagogue St. Amaziah, Jerusalem",
    "name": null,
    "place_type": "Synagogue",
    "location": "Israel",
    "latitude": 31.7621077,
    "longitude": 35.215425
  },
  {
    "id": 7,
    "date": "2020-03-02",
    "add_single_point": "Single",
    "add_route_point": null,
    "start_hour": "10:30",
    "end_hour": "12:00",
    "address": "Hillel Cafe Ramat Beit Hakerem",
    "name": null,
    "place_type": "Cafe",
    "location": "Israel",
    "latitude": 31.7755289,
    "longitude": 35.1873938
  },
  {
    "id": 8,
    "date": "2020-02-28",
    "add_single_point": "Single",
    "add_route_point": null,
    "start_hour": "15:00",
    "end_hour": "17:00",
    "address": "Hillel Cafe Ramat Beit Hakerem",
    "name": null,
    "place_type": "Cafe",
    "location": "Israel",
    "latitude": 31.9922411,
    "longitude": 34.7480098
  },
  {
    "id": 9,
    "date": "2020-02-29",
    "add_single_point": "Single",
    "add_route_point": null,
    "start_hour": "13:00",
    "end_hour": "15:00",
    "address": "Prof. Beni Khabot St 7, Rishon LeTsiyon, Israel",
    "name": null,
    "place_type": "Restaurant",
    "location": "Israel",
    "latitude": 31.9922411,
    "longitude": 34.7480098
  },
  {
    "id": 10,
    "date": "2020-03-02",
    "add_single_point": "Single",
    "add_route_point": null,
    "start_hour": "09:00",
    "end_hour": "10:00",
    "address": "Prof. Beni Khabot St 7, Rishon LeTsiyon, Israel",
    "name": null,
    "place_type": "Restaurant",
    "location": "Israel",
    "latitude": 32.1440562,
    "longitude": 34.8375966
  },
  {
    "id": 11,
    "date": "2020-03-02",
    "add_single_point": "Single",
    "add_route_point": null,
    "start_hour": "14:30",
    "end_hour": "15:00",
    "address": "Sokolov 53 Ramat Hasharon",
    "name": null,
    "place_type": "Cafe",
    "location": "Israel",
    "latitude": 32.138536,
    "longitude": 34.8439339
  },
  {
    "id": 12,
    "date": "2020-03-02",
    "add_single_point": "Single",
    "add_route_point": null,
    "start_hour": "10:30",
    "end_hour": "11:00",
    "address": "Kupat Kholim Maccabi",
    "name": null,
    "place_type": "Emergency Medical hotline",
    "location": "Israel",
    "latitude": 32.38,
    "longitude": 35.018
  },
  {
    "id": 13,
    "date": "2020-03-02",
    "add_single_point": "Single",
    "add_route_point": null,
    "start_hour": "11:30",
    "end_hour": "12:30",
    "address": "סי קפה קיבוץ עינת",
    "name": null,
    "place_type": "Cafe",
    "location": "Israel",
    "latitude": 32.9004553,
    "longitude": 35.2949235
  },
  {
    "id": 14,
    "date": "2020-03-02",
    "add_single_point": "Single",
    "add_route_point": null,
    "start_hour": "12:30",
    "end_hour": "13:30",
    "address": "Ankor St 82",
    "name": null,
    "place_type": "Park",
    "location": "Israel",
    "latitude": 32.9472259,
    "longitude": 35.1747824
  },
  {
    "id": 15,
    "date": "2020-03-02",
    "add_single_point": "Single",
    "add_route_point": null,
    "start_hour": "13:30",
    "end_hour": "14:30",
    "address": "אזור תעשיה ירכא ירכא, 2496700, Israel",
    "name": null,
    "place_type": "SuperMarket",
    "location": "Israel",
    "latitude": 32.956069,
    "longitude": 35.1832545
  },
  {
    "id": 16,
    "date": "2020-03-02",
    "add_single_point": "Single",
    "add_route_point": null,
    "start_hour": "19:30",
    "end_hour": "19:35",
    "address": "גאיה סנטר, Yarka, Israel",
    "name": null,
    "place_type": "Restaurant",
    "location": "Israel",
    "latitude": 32.0818759,
    "longitude": 34.8673823
  },
  {
    "id": 17,
    "date": "2020-03-02",
    "add_single_point": "Single",
    "add_route_point": null,
    "start_hour": "20:00",
    "end_hour": "20:10",
    "address": "42 Kaplan Street, Petah Tikva",
    "name": null,
    "place_type": "School",
    "location": "Israel",
    "latitude": 32.0854384,
    "longitude": 34.8705871
  },
  {
    "id": 18,
    "date": "2020-03-03",
    "add_single_point": "Single",
    "add_route_point": null,
    "start_hour": "18:00",
    "end_hour": "19:00",
    "address": "Arlozerov 38 Petah Tikva",
    "name": null,
    "place_type": "Sports hall",
    "location": "Israel",
    "latitude": 32.071626,
    "longitude": 34.893807
  },
  {
    "id": 19,
    "date": "2020-03-02",
    "add_single_point": "Single",
    "add_route_point": null,
    "start_hour": "10:00",
    "end_hour": "20:10",
    "address": "Geriatric Medical Center Rebecca House",
    "name": null,
    "place_type": "Medical Center",
    "location": "Israel",
    "latitude": 32.0020481,
    "longitude": 34.9432343
  },
  {
    "id": 20,
    "date": "2020-03-03",
    "add_single_point": "Single",
    "add_route_point": null,
    "start_hour": "09:45",
    "end_hour": "10:00",
    "address": "Tefen St 7, Shoham",
    "name": null,
    "place_type": "School",
    "location": "Israel",
    "latitude": 31.994,
    "longitude": 34.946
  },
  {
    "id": 21,
    "date": "2020-03-03",
    "add_single_point": "Single",
    "add_route_point": null,
    "start_hour": "17:40",
    "end_hour": "18:15",
    "address": "Yirmiyahu St 19, Jerusalem, Israel",
    "name": null,
    "place_type": "Health Clinic",
    "location": "Israel",
    "latitude": 31.9717179,
    "longitude": 34.8020254
  },
  {
    "id": 22,
    "date": "2020-03-03",
    "add_single_point": "Single",
    "add_route_point": null,
    "start_hour": "09:30",
    "end_hour": "19:30",
    "address": "Trachtenberg 18 Rishon Lezion",
    "name": null,
    "place_type": "Supermarket",
    "location": "Israel",
    "latitude": 31.7890379,
    "longitude": 35.2165184
  },
  {
    "id": 23,
    "date": "2020-03-04",
    "add_single_point": "Single",
    "add_route_point": null,
    "start_hour": "09:30",
    "end_hour": "19:30",
    "address": "Malkei Israel St 16, Jerusalem, Israel",
    "name": null,
    "place_type": "Bank",
    "location": "Israel",
    "latitude": 31.7890379,
    "longitude": 35.2165184
  },
  {
    "id": 24,
    "date": "2020-03-05",
    "add_single_point": "Single",
    "add_route_point": null,
    "start_hour": "09:30",
    "end_hour": "14:00",
    "address": "Malkei Israel St 16, Jerusalem, Israel",
    "name": null,
    "place_type": "Bank",
    "location": "Israel",
    "latitude": 31.7890379,
    "longitude": 35.2165184
  },
  {
    "id": 25,
    "date": "2020-03-05",
    "add_single_point": "Single",
    "add_route_point": null,
    "start_hour": "20:00",
    "end_hour": "21:30",
    "address": "Malkei Israel St 16, Jerusalem, Israel",
    "name": null,
    "place_type": "Bank",
    "location": "Israel",
    "latitude": 32.1022239,
    "longitude": 35.2070919
  },
  {
    "id": 26,
    "date": "2020-02-29",
    "add_single_point": "Single",
    "add_route_point": null,
    "start_hour": "13:00",
    "end_hour": "15:00",
    "address": "מוריה 2, Ari'el",
    "name": null,
    "place_type": "",
    "location": "Israel",
    "latitude": 31.9921945,
    "longitude": 34.7480313
  },
  {
    "id": 27,
    "date": "2020-03-02",
    "add_single_point": "Single",
    "add_route_point": null,
    "start_hour": "14:00",
    "end_hour": "15:00",
    "address": "Prof. Beni Khabot St 7, Rishon LeTsiyon, Israel",
    "name": null,
    "place_type": "",
    "location": "Israel",
    "latitude": 31.9744662,
    "longitude": 34.784506
  },
  {
    "id": 28,
    "date": "2020-03-02",
    "add_single_point": "Single",
    "add_route_point": null,
    "start_hour": "10:30",
    "end_hour": "11:00",
    "address": "Ha-Khelmonit St 19, Rishon LeTsiyon, Israel",
    "name": null,
    "place_type": "",
    "location": "Israel",
    "latitude": 32.38,
    "longitude": 35.018
  },
  {
    "id": 29,
    "date": "2020-03-02",
    "add_single_point": "Single",
    "add_route_point": null,
    "start_hour": "11:30",
    "end_hour": "12:30",
    "address": "Yitzhak Rabin Hwy 6, Israel",
    "name": null,
    "place_type": "",
    "location": "Israel",
    "latitude": 32.9004553,
    "longitude": 35.2949235
  },
  {
    "id": 30,
    "date": "2020-03-02",
    "add_single_point": "Single",
    "add_route_point": null,
    "start_hour": "12:30",
    "end_hour": "13:30",
    "address": "Ankor\nKarmiel\nIsrael",
    "name": null,
    "place_type": "",
    "location": "Israel",
    "latitude": 32.9472259,
    "longitude": 35.1747824
  },
  {
    "id": 31,
    "date": "2020-03-02",
    "add_single_point": "Single",
    "add_route_point": null,
    "start_hour": "13:30",
    "end_hour": "14:30",
    "address": "8533, Yarka, Israel",
    "name": null,
    "place_type": "",
    "location": "Israel",
    "latitude": 32.956069,
    "longitude": 35.1832545
  },
  {
    "id": 32,
    "date": "2020-03-02",
    "add_single_point": "Single",
    "add_route_point": null,
    "start_hour": "19:30",
    "end_hour": "19:35",
    "address": "גאיה סנטר, Yarka, Israel",
    "name": null,
    "place_type": "",
    "location": "Israel",
    "latitude": 32.0818759,
    "longitude": 34.8673823
  },
  {
    "id": 33,
    "date": "2020-03-02",
    "add_single_point": "Single",
    "add_route_point": null,
    "start_hour": "10:30",
    "end_hour": "11:00",
    "address": "Kaplan 42, Petah Tikva, Israel",
    "name": null,
    "place_type": "",
    "location": "Israel",
    "latitude": 32.38,
    "longitude": 35.018
  },
  {
    "id": 34,
    "date": "2020-03-02",
    "add_single_point": "Single",
    "add_route_point": null,
    "start_hour": "11:30",
    "end_hour": "12:30",
    "address": "Yitzhak Rabin Hwy 6, Israel",
    "name": null,
    "place_type": "",
    "location": "Israel",
    "latitude": 32.9004553,
    "longitude": 35.2949235
  },
  {
    "id": 35,
    "date": "2020-03-02",
    "add_single_point": "Single",
    "add_route_point": null,
    "start_hour": "12:30",
    "end_hour": "13:30",
    "address": "Ankor St 82\nKarmiel\nIsrael",
    "name": null,
    "place_type": "",
    "location": "Israel",
    "latitude": 32.9472259,
    "longitude": 35.1747824
  }
]
